{
  "destination": {
    "target": ""
  },
  "content_type": "StationGuesserResponse",
  "content": {
    "guesses": [
      {
        "id": "8503000",
        "name": "Zürich HB",
        "pos": {
          "lat": 47.378177,
          "lng": 8.540212
        }
      },
      {
        "id": "8591442",
        "name": "Zürich, Zoo",
        "pos": {
          "lat": 47.381571,
          "lng": 8.571556
        }
      },
      {
        "id": "8503010",
        "name": "Zürich Enge",
        "pos": {
          "lat": 47.364099,
          "lng": 8.53082
        }
      },
      {
        "id": "8503051",
        "name": "Zürich Binz",
        "pos": {
          "lat": 47.36263,
          "lng": 8.518419
        }
      },
      {
        "id": "8591427",
        "name": "Zürich, Werd",
        "pos": {
          "lat": 47.372322,
          "lng": 8.526842
        }
      },
      {
        "id": "8503006",
        "name": "Zürich Oerlikon",
        "pos": {
          "lat": 47.41153,
          "lng": 8.544139
        }
      }
    ]
  },
  "id": 1
}
